{
"type": "FeatureCollection",
"name": "Metro_Stations",
"crs": { "type": "name", "properties": { "name": "urn:ogc:def:crs:OGC:1.3:CRS84" } },
"features": [
{ "type": "Feature", "properties": { "railway": "buffer_stop", "electrified": null, "gauge": null, "layer": null, "name": null, "tracks": null, "name:hi": null, "network": null, "operator": null, "public_transport": null, "subway": null, "ref": null, "bridge": null, "tunnel": null, "alt_name": null, "name:ur": null }, "geometry": { "type": "Point", "coordinates": [ 80.9959491, 26.8911409 ] } },
{ "type": "Feature", "properties": { "railway": "buffer_stop", "electrified": null, "gauge": null, "layer": null, "name": null, "tracks": null, "name:hi": null, "network": null, "operator": null, "public_transport": null, "subway": null, "ref": null, "bridge": null, "tunnel": null, "alt_name": null, "name:ur": null }, "geometry": { "type": "Point", "coordinates": [ 80.8844697, 26.7663284 ] } },
{ "type": "Feature", "properties": { "railway": "stop", "electrified": null, "gauge": null, "layer": null, "name": "Transport Nagar", "tracks": null, "name:hi": "ट्रांसपोर्ट नगर", "network": "Lucknow Metro", "operator": "LMRC", "public_transport": "stop_position", "subway": "yes", "ref": null, "bridge": null, "tunnel": null, "alt_name": null, "name:ur": null }, "geometry": { "type": "Point", "coordinates": [ 80.8828258, 26.7781141 ] } },
{ "type": "Feature", "properties": { "railway": null, "electrified": null, "gauge": null, "layer": null, "name": "Durgapuri", "tracks": null, "name:hi": "दुर्गापुरी", "network": "Lucknow Metro", "operator": "LMRC", "public_transport": "stop_position", "subway": "yes", "ref": "DGPI", "bridge": null, "tunnel": null, "alt_name": null, "name:ur": null }, "geometry": { "type": "Point", "coordinates": [ 80.9154112, 26.8319799 ] } },
{ "type": "Feature", "properties": { "railway": null, "electrified": null, "gauge": null, "layer": null, "name": "Sachivalaya", "tracks": null, "name:hi": "सचिवालय", "network": "Lucknow Metro", "operator": "LMRC", "public_transport": "stop_position", "subway": "yes", "ref": null, "bridge": null, "tunnel": null, "alt_name": null, "name:ur": null }, "geometry": { "type": "Point", "coordinates": [ 80.9399191, 26.8415797 ] } },
{ "type": "Feature", "properties": { "railway": null, "electrified": null, "gauge": null, "layer": null, "name": "Lucknow University", "tracks": null, "name:hi": "लखनऊ विश्वविद्यालय", "network": "Lucknow Metro", "operator": "LMRC", "public_transport": "stop_position", "subway": "yes", "ref": null, "bridge": null, "tunnel": null, "alt_name": null, "name:ur": null }, "geometry": { "type": "Point", "coordinates": [ 80.9395636, 26.8654923 ] } },
{ "type": "Feature", "properties": { "railway": null, "electrified": null, "gauge": null, "layer": null, "name": "Bhootnath Market", "tracks": null, "name:hi": "भूतनाथ मार्केट", "network": "Lucknow Metro", "operator": "LMRC", "public_transport": "stop_position", "subway": "yes", "ref": null, "bridge": null, "tunnel": null, "alt_name": null, "name:ur": null }, "geometry": { "type": "Point", "coordinates": [ 80.9823065, 26.87221 ] } },
{ "type": "Feature", "properties": { "railway": null, "electrified": null, "gauge": null, "layer": null, "name": "Hussainganj", "tracks": null, "name:hi": "हुसैनगंज", "network": "Lucknow Metro", "operator": "LMRC", "public_transport": "stop_position", "subway": "yes", "ref": null, "bridge": null, "tunnel": null, "alt_name": null, "name:ur": null }, "geometry": { "type": "Point", "coordinates": [ 80.9343499, 26.8384239 ] } },
{ "type": "Feature", "properties": { "railway": null, "electrified": null, "gauge": null, "layer": null, "name": "Lekhraj Market", "tracks": null, "name:hi": "लेखराज मार्केट", "network": "Lucknow Metro", "operator": "LMRC", "public_transport": "stop_position", "subway": "yes", "ref": null, "bridge": null, "tunnel": null, "alt_name": null, "name:ur": null }, "geometry": { "type": "Point", "coordinates": [ 80.9739233, 26.8709156 ] } },
{ "type": "Feature", "properties": { "railway": "stop", "electrified": null, "gauge": null, "layer": null, "name": "Amausi", "tracks": null, "name:hi": "अमौसी", "network": "Lucknow Metro", "operator": "LMRC", "public_transport": "stop_position", "subway": "yes", "ref": null, "bridge": null, "tunnel": null, "alt_name": null, "name:ur": null }, "geometry": { "type": "Point", "coordinates": [ 80.8785885, 26.7711411 ] } },
{ "type": "Feature", "properties": { "railway": null, "electrified": null, "gauge": null, "layer": null, "name": "Alambagh", "tracks": null, "name:hi": "आलमबाग़", "network": "Lucknow Metro", "operator": "LMRC", "public_transport": "stop_position", "subway": "yes", "ref": null, "bridge": null, "tunnel": null, "alt_name": null, "name:ur": null }, "geometry": { "type": "Point", "coordinates": [ 80.9025308, 26.8139957 ] } },
{ "type": "Feature", "properties": { "railway": null, "electrified": null, "gauge": null, "layer": null, "name": "KD Singh Babu Stadium", "tracks": null, "name:hi": "केडी सिंह बाबू स्टेडियम", "network": "Lucknow Metro", "operator": "LMRC", "public_transport": "stop_position", "subway": "yes", "ref": null, "bridge": null, "tunnel": null, "alt_name": null, "name:ur": null }, "geometry": { "type": "Point", "coordinates": [ 80.9368471, 26.8539423 ] } },
{ "type": "Feature", "properties": { "railway": null, "electrified": null, "gauge": null, "layer": null, "name": "Singar Nagar", "tracks": null, "name:hi": "सिंगार नगर", "network": "Lucknow Metro", "operator": "LMRC", "public_transport": "stop_position", "subway": "yes", "ref": null, "bridge": null, "tunnel": null, "alt_name": null, "name:ur": null }, "geometry": { "type": "Point", "coordinates": [ 80.8964507, 26.8030829 ] } },
{ "type": "Feature", "properties": { "railway": null, "electrified": null, "gauge": null, "layer": null, "name": "Indira Nagar", "tracks": null, "name:hi": "इंदिरा नगर", "network": "Lucknow Metro", "operator": "LMRC", "public_transport": "stop_position", "subway": "yes", "ref": null, "bridge": null, "tunnel": null, "alt_name": null, "name:ur": null }, "geometry": { "type": "Point", "coordinates": [ 80.9909072, 26.8727258 ] } },
{ "type": "Feature", "properties": { "railway": null, "electrified": null, "gauge": null, "layer": null, "name": "Munshipulia", "tracks": null, "name:hi": "मुंशीपुलिया", "network": "Lucknow Metro", "operator": "LMRC", "public_transport": "stop_position", "subway": "yes", "ref": null, "bridge": null, "tunnel": null, "alt_name": null, "name:ur": null }, "geometry": { "type": "Point", "coordinates": [ 80.9960027, 26.8879043 ] } },
{ "type": "Feature", "properties": { "railway": null, "electrified": null, "gauge": null, "layer": null, "name": "Mawaiya", "tracks": null, "name:hi": "मवईया", "network": "Lucknow Metro", "operator": "LMRC", "public_transport": "stop_position", "subway": "yes", "ref": null, "bridge": null, "tunnel": null, "alt_name": null, "name:ur": null }, "geometry": { "type": "Point", "coordinates": [ 80.9098797, 26.8253033 ] } },
{ "type": "Feature", "properties": { "railway": null, "electrified": null, "gauge": null, "layer": null, "name": "Badshah Nagar", "tracks": null, "name:hi": "बादशाह नगर", "network": "Lucknow Metro", "operator": "LMRC", "public_transport": "stop_position", "subway": "yes", "ref": null, "bridge": null, "tunnel": null, "alt_name": null, "name:ur": null }, "geometry": { "type": "Point", "coordinates": [ 80.9610675, 26.8706788 ] } },
{ "type": "Feature", "properties": { "railway": null, "electrified": null, "gauge": null, "layer": null, "name": "Alambagh Bus Station", "tracks": null, "name:hi": "आलमबाग बस स्टेशन", "network": "Lucknow Metro", "operator": "LMRC", "public_transport": "stop_position", "subway": "yes", "ref": null, "bridge": null, "tunnel": null, "alt_name": null, "name:ur": null }, "geometry": { "type": "Point", "coordinates": [ 80.9073112, 26.8184598 ] } },
{ "type": "Feature", "properties": { "railway": null, "electrified": null, "gauge": null, "layer": null, "name": "Hazratganj", "tracks": null, "name:hi": "हज़रतगंज", "network": "Lucknow Metro", "operator": "LMRC", "public_transport": "stop_position", "subway": "yes", "ref": null, "bridge": null, "tunnel": null, "alt_name": null, "name:ur": null }, "geometry": { "type": "Point", "coordinates": [ 80.9416143, 26.8500472 ] } },
{ "type": "Feature", "properties": { "railway": "stop", "electrified": null, "gauge": null, "layer": null, "name": "Chaudhary Charan Singh International Airport", "tracks": null, "name:hi": "चौधरी चरण सिंह अंतरराष्ट्रीय हवाई अड्डा", "network": "Lucknow Metro", "operator": "LMRC", "public_transport": "stop_position", "subway": "yes", "ref": null, "bridge": null, "tunnel": null, "alt_name": "CCS Airport", "name:ur": null }, "geometry": { "type": "Point", "coordinates": [ 80.8830062, 26.7663145 ] } },
{ "type": "Feature", "properties": { "railway": null, "electrified": null, "gauge": null, "layer": null, "name": "IT College", "tracks": null, "name:hi": "आईटी कॉलेज", "network": "Lucknow Metro", "operator": "LMRC", "public_transport": "stop_position", "subway": "yes", "ref": null, "bridge": null, "tunnel": null, "alt_name": null, "name:ur": null }, "geometry": { "type": "Point", "coordinates": [ 80.945608, 26.8710043 ] } },
{ "type": "Feature", "properties": { "railway": null, "electrified": null, "gauge": null, "layer": null, "name": "Krishna Nagar", "tracks": null, "name:hi": "कृष्णा नगर", "network": "Lucknow Metro", "operator": "LMRC", "public_transport": "stop_position", "subway": "yes", "ref": null, "bridge": null, "tunnel": null, "alt_name": null, "name:ur": null }, "geometry": { "type": "Point", "coordinates": [ 80.8917825, 26.7943833 ] } },
{ "type": "Feature", "properties": { "railway": null, "electrified": null, "gauge": null, "layer": null, "name": "Charbagh Railway Station", "tracks": null, "name:hi": "चारबाग़ रेलवे स्टेशन", "network": "Lucknow Metro", "operator": "LMRC", "public_transport": "stop_position", "subway": "yes", "ref": null, "bridge": null, "tunnel": null, "alt_name": null, "name:ur": "لکھنؤ چارباغ اسٹیشن" }, "geometry": { "type": "Point", "coordinates": [ 80.9231145, 26.8323812 ] } }
]
}
